{"ROW":[{"ID":"205","NAME":"205国道","SEARCH_NAME":"205国道 加油站","SHOW_LATITUDE":26.820193,"SHOW_LONGITUDE":118.172486,"IMAGE_PATH":"traffic_weather/205.png","DETAIL_IMAGE":"traffic_weather/detail_road.png"},{"ID":"316","NAME":"316国道","SEARCH_NAME":"316国道 加油站","SHOW_LATITUDE":26.364028,"SHOW_LONGITUDE":118.730882,"IMAGE_PATH":"traffic_weather/316.png","DETAIL_IMAGE":"traffic_weather/detail_road.png"},{"ID":"319","NAME":"319国道","SEARCH_NAME":"319国道 加油站","SHOW_LATITUDE":24.480473,"SHOW_LONGITUDE":118.096235,"IMAGE_PATH":"traffic_weather/319.png","DETAIL_IMAGE":"traffic_weather/detail_road.png"},{"ID":"104","NAME":"104国道","SEARCH_NAME":"104国道 加油站","SHOW_LATITUDE":26.757434,"SHOW_LONGITUDE":119.525393,"IMAGE_PATH":"traffic_weather/104.png","DETAIL_IMAGE":"traffic_weather/detail_road.png"},{"ID":"324","NAME":"324国道","SEARCH_NAME":"324国道 加油站","SHOW_LATITUDE":24.906777,"SHOW_LONGITUDE":117.986442,"IMAGE_PATH":"traffic_weather/324.png","DETAIL_IMAGE":"traffic_weather/detail_road.png"},{"ID":"15","NAME":"沈海高速","SEARCH_NAME":"G15 高速","SHOW_LATITUDE":25.453659,"SHOW_LONGITUDE":118.462648,"IMAGE_PATH":"traffic_weather/15.png","DETAIL_IMAGE":"traffic_weather/detail_highway.png"},{"ID":"70","NAME":"福银高速","SEARCH_NAME":"G70 高速","SHOW_LATITUDE":25.756926,"SHOW_LONGITUDE":119.374408,"IMAGE_PATH":"traffic_weather/70.png","DETAIL_IMAGE":"traffic_weather/detail_highway.png"},{"ID":"76","NAME":"漳龙高速","SEARCH_NAME":"G76 高速","SHOW_LATITUDE":24.03896,"SHOW_LONGITUDE":117.226133,"IMAGE_PATH":"traffic_weather/76.png","DETAIL_IMAGE":"traffic_weather/detail_highway.png"},{"ID":"3","NAME":"浦南高速","SEARCH_NAME":"G3 高速","SHOW_LATITUDE":27.526734,"SHOW_LONGITUDE":118.134217,"IMAGE_PATH":"traffic_weather/3.png","DETAIL_IMAGE":"traffic_weather/detail_highway.png"}]}